[
  {
    "id": "seed-0",
    "lat": 41.02149,
    "lng": 70.17607,
    "name": "Ўзбеккўмир АЖ (кўмир кони биноси)",
    "bank": "Ўзсаноатқурилишбанк",
    "details": "Ангрен БХМ - NCR 6623"
  },
  {
    "id": "seed-1",
    "lat": 41.02215,
    "lng": 70.18451,
    "name": "Ўзбеккўмир АЖ (разрез биноси)",
    "bank": "Ўзсаноатқурилишбанк",
    "details": "Ангрен БХМ - NCR 6623"
  },
  {
    "id": "seed-2",
    "lat": 40.996153,
    "lng": 70.061689,
    "name": "Oxangaron kuchasi Zaxro market",
    "bank": "Ўзсаноатқурилишбанк",
    "details": "Ангрен БХМ - NCR 6623"
  },
  {
    "id": "seed-3",
    "lat": 41.006025,
    "lng": 70.076754,
    "name": "Angren sh 5/1 A daha 3 uy",
    "bank": "Ўзсаноатқурилишбанк",
    "details": "Ангрен БХМ -  Cineo C2070"
  },
  {
    "id": "seed-4",
    "lat": 41.00863,
    "lng": 70.07462,
    "name": "Ўзбеккўмир АЖ ( маъмурий биноси)",
    "bank": "Ўзсаноатқурилишбанк",
    "details": "Ангрен БХМ - NCR 6623"
  },
  {
    "id": "seed-5",
    "lat": 41.006025,
    "lng": 70.076754,
    "name": "Angren sh 5/1 A daha 3 uy",
    "bank": "Ўзсаноатқурилишбанк",
    "details": "Ангрен БХМ - NCR 6623"
  },
  {
    "id": "seed-6",
    "lat": 41.01821,
    "lng": 70.08131,
    "name": "Ангрен шахар  дехқон бозори",
    "bank": "Ўзсаноатқурилишбанк",
    "details": "Ангрен БХМ - NCR 6623"
  },
  {
    "id": "seed-7",
    "lat": 41.01231,
    "lng": 70.08439,
    "name": "Ангрен шаҳар Бунёдкор кўчаси 45 даҳа 1-уй",
    "bank": "Ўзсаноатқурилишбанк",
    "details": "Ангрен БХМ - NCR 6623"
  },
  {
    "id": "seed-8",
    "lat": 41.02733,
    "lng": 70.07641,
    "name": "Ангрен шаҳар А.Ясаввий кўчаси ",
    "bank": "Ўзсаноатқурилишбанк",
    "details": "Ангрен БХМ - NCR 6623"
  },
  {
    "id": "seed-9",
    "lat": 41.040865,
    "lng": 70.092424,
    "name": "Тошкент вилояти, Ангрен ш, \"Улугбек\" МФЙ 14 даха",
    "bank": "Миллий банк ",
    "details": "Ангрен БХМ - NCR 6623"
  },
  {
    "id": "seed-10",
    "lat": 41.018603,
    "lng": 70.082619,
    "name": "Тошкент вилояти, Ангрен ш, \"Бўстон\" МФЙ Мустақиллик кўчаси",
    "bank": "Миллий банк ",
    "details": "Ангрен БХМ - NCR 6623"
  },
  {
    "id": "seed-11",
    "lat": 41.018603,
    "lng": 70.082645,
    "name": "Тошкент вилояти, Ангрен ш, \"Бўстон\" МФЙ Мустақиллик кўчаси",
    "bank": "Миллий банк ",
    "details": "Ангрен БХМ - NCR 6623"
  },
  {
    "id": "seed-12",
    "lat": 41.018551,
    "lng": 70.08293,
    "name": "Тошкент вилояти, Ангрен ш, \"Бўстон\" МФЙ Мустақиллик кўчаси",
    "bank": "Миллий банк ",
    "details": "Ангрен БХМ - NCR 6623"
  },
  {
    "id": "seed-13",
    "lat": 41.018603,
    "lng": 70.082645,
    "name": "Тошкент вилояти, Ангрен ш, \"Геолог\" МФЙ Охангарон кўчаси",
    "bank": "Миллий банк ",
    "details": "Ангрен БХМ - Deobold 2070"
  },
  {
    "id": "seed-14",
    "lat": 40.994338,
    "lng": 70.058417,
    "name": "Тошкент вилояти, Ангрен ш, \"2/5\" даха Охангарон кўчаси",
    "bank": "Миллий банк ",
    "details": "Ангрен БХМ - NCR 6623"
  },
  {
    "id": "seed-15",
    "lat": 40.995517,
    "lng": 70.065361,
    "name": "Тошкент вилояти, Ангрен ш, \"Дўстлик\" МФЙ Охангарон кўчаси 1 уй",
    "bank": "Миллий банк ",
    "details": "Ангрен БХМ - GRG 68"
  },
  {
    "id": "seed-16",
    "lat": 40.995517,
    "lng": 70.065361,
    "name": "Тошкент вилояти, Ангрен ш, \"Дўстлик\" МФЙ Охангарон кўчаси 1 уй",
    "bank": "Миллий банк ",
    "details": "Ангрен БХМ - Cassida"
  },
  {
    "id": "seed-17",
    "lat": 40.979093,
    "lng": 70.007804,
    "name": "Тошкент вилояти, Ангрен ш, \"Геолог\" МФЙ Охангарон кўчаси",
    "bank": "Миллий банк ",
    "details": "Ангрен БХМ - GRG 22"
  },
  {
    "id": "seed-35",
    "lat": 40.9076544,
    "lng": 69.6405274,
    "name": "Ангрен шахар ",
    "bank": "Ипотека банк",
    "details": "Оҳангарон ф - NCR 6683"
  },
  {
    "id": "seed-36",
    "lat": 41.01057,
    "lng": 70.081304,
    "name": "Тошкент вил Ангрен шахар Навоий куч 3",
    "bank": "Инкассатция Тош вил",
    "details": "Инкассатция Тош вил - DEBOLD 2040"
  },
  {
    "id": "seed-37",
    "lat": 41,
    "lng": 180520,
    "name": "Ангрен шахар  дехкон бозори хухудида",
    "bank": "Хамкорбанк",
    "details": "Ангрен филлиали - DIEBOLD2060"
  },
  {
    "id": "seed-38",
    "lat": 41,
    "lng": 177160,
    "name": "Ангрен шахар  Узбекистон мустакиллиги кучаси Сокин Савдо биноси ичида",
    "bank": "Хамкорбанк",
    "details": "Ангрен филлиали - NCR6622"
  },
  {
    "id": "seed-39",
    "lat": 40,
    "lng": 9976263,
    "name": "Ангрен  шахар  Охангарон  кучаси  24/7 Шахобчаси ",
    "bank": "Хамкорбанк",
    "details": "Ангрен филлиали - NCR6682"
  },
  {
    "id": "seed-40",
    "lat": 40,
    "lng": 9800241,
    "name": "Ангрен  шахар  Облик кургони Маркет 1 супермаркети ",
    "bank": "Хамкорбанк",
    "details": "Ангрен филлиали - DIEBOLD2060"
  },
  {
    "id": "seed-41",
    "lat": 41,
    "lng": 172146,
    "name": "Ангрен шахар  дехкон бозори хухудида",
    "bank": "Хамкорбанк",
    "details": "Ангрен филлиали - NCR6623"
  },
  {
    "id": "seed-42",
    "lat": 40,
    "lng": 9976263,
    "name": "Ангрен  шахар  Охангарон  кучаси  24/7 Шахобчаси ",
    "bank": "Хамкорбанк",
    "details": "Ангрен филлиали - NCR6623"
  },
  {
    "id": "seed-43",
    "lat": 41,
    "lng": 81341,
    "name": "Ангрен  шахар  Навоий  кучаси  9-уй Омад БХО",
    "bank": "Хамкорбанк",
    "details": "Ангрен филлиали - NCR6623"
  },
  {
    "id": "seed-44",
    "lat": 40,
    "lng": 9976263,
    "name": "Ангрен шахар Охангарон кучаси филиал  биноси  ичида",
    "bank": "Хамкорбанк",
    "details": "Ангрен филлиали - Cassida"
  },
  {
    "id": "seed-45",
    "lat": 41,
    "lng": 180520,
    "name": "Ангрен шахар  дехкон бозори хухудида",
    "bank": "Хамкорбанк",
    "details": "Ангрен филлиали - DIEBOLD2060"
  },
  {
    "id": "seed-46",
    "lat": 41,
    "lng": 164896,
    "name": "Ангрен  шахар  Навоий  кучаси  124-уй Марказ БХО",
    "bank": "Хамкорбанк",
    "details": "Ангрен филлиали - GRG H68VL"
  },
  {
    "lat": 40.99394132293477,
    "lng": 70.06088733673097,
    "name": "something to add here",
    "bank": "something",
    "branch": "",
    "mfo": "",
    "city": "",
    "neighborhood": "",
    "address": "123 test",
    "status": "1",
    "model": "",
    "id": "olgk8dkyv"
  }
]